  {
    "bares":[
    {
    "id_restaurant": "1",
    "name": "La Placeta",
    "address": "Pl. del Pi 1<br/>08002 Barcelona",
    "lat": "41.38176037",
    "lng": "2.17444037",
    "kind_food": "Mediterraneo,Italiano",
    "photo": "<img src=https://via.placeholder.com/150x100>"
    },
    {
    "id_restaurant": "2",
    "name": "Bot-Bot",
    "address": "Carrer del Bot, 23 -25<br/>08002 Barcelona",
    "lat": "41.38453325",
    "lng": "2.17181153",
    "kind_food": "Mexicano,Casero,Internacional",
    "photo": "<img src=https://via.placeholder.com/150x100>"
    },
    {
    "id_restaurant": "3",
    "name": "El Chino Orwell",
    "address": "Pl. George Orwell, 1<br/>08002 Barcelona",
    "lat": "41.38054677",
    "lng": "2.17766687",
    "kind_food": "Casero,Oriental",
    "photo": "<img src=https://via.placeholder.com/150x100>"
    },
    {
    "id_restaurant": "4",
    "name": "Pizzeria Sant Michelle",
    "address": "Pl. Sant Miquel, 1<br/>08002 Barcelona",
    "lat": "41.38220014",
    "lng": "2.17693754",
    "kind_food": "Italiano",
    "photo": "<img src=https://via.placeholder.com/150x100>"
    },
    {
    "id_restaurant": "5",
    "name": "The Lost Guiri",
    "address": "C. Rambla, 56<br/>08002 Barcelona",
    "lat": "41.38014326",
    "lng": "2.17442369",
    "kind_food": "Internacional",
    "photo": "<img src=https://via.placeholder.com/150x100>"
    },
    {
    "id_restaurant": "6",
    "name": "La Torrada del G\u00f2tic",
    "address": "Ptge. Pau, 11<br/>08002 Barcelona",
    "lat": "41.37794417",
    "lng": "2.17779059",
    "kind_food": "Mediterraneo,Vegetariano,Casero",
    "photo": "<img src=https://via.placeholder.com/150x100>"
    },
    {
    "id_restaurant": "7",
    "name": "El M\u00f2s",
    "address": "Pl. Sant Josep Oriol, 10<br/>08002 Barcelona",
    "lat": "41.38198776",
    "lng": "2.17449479",
    "kind_food": "Mediterraneo,Vegetariano,Casero,Internacional",
    "photo": "<img src=https://via.placeholder.com/150x100>"
    },
    {
    "id_restaurant": "8",
    "name": "Poco Pollo",
    "address": "Pg. Colom, 9<br/>08002 Barcelona",
    "lat": "41.38016115",
    "lng": "2.18082678",
    "kind_food": "Casero",
    "photo": "<img src=https://via.placeholder.com/150x100>"
    },
    {
    "id_restaurant": "9",
    "name": "The Red Dragon",
    "address": "Pl.Regomir, 4<br/>08002 Barcelona",
    "lat": "41.38161931",
    "lng": "2.17861242",
    "kind_food": "Oriental,High Cuisine",
    "photo": "<img src=https://via.placeholder.com/150x100>"
    },
    {
    "id_restaurant": "10",
    "name": "El Agente de la Continental",
    "address": "Av. Catedral, 7<br/>08002 Barcelona",
    "lat": "41.38487761",
    "lng": "2.17572444",
    "kind_food": "Mediterraneo,High Cuisine",
    "photo": "<img src=https://via.placeholder.com/150x100>"
    },
    {
    "id_restaurant": "11",
    "name": "Verde que te quiero",
    "address": "Pl. Traginers, 8<br/>08002 Barcelona",
    "lat": "41.38213739",
    "lng": "2.17995247",
    "kind_food": "Mediterraneo,Vegetariano",
    "photo": "<img src=https://via.placeholder.com/150x100>"
    },
    {
    "id_restaurant": "12",
    "name": "El Rey de las Tapas",
    "address": "Pl. Catalunya, 19<br/>08002 Barcelona",
    "lat": "41.38624500",
    "lng": "2.17100178",
    "kind_food": "Mediterraneo,Casero",
    "photo": "<img src=https://via.placeholder.com/150x100>"
    },
    {
    "id_restaurant": "13",
    "name": "Quimet, Quimeta & Co",
    "address": "Pl. Joaqim Xirau i Palau, 1<br/>08002 Barcelona",
    "lat": "41.37852758",
    "lng": "2.17691593",
    "kind_food": "Mediterraneo,Mexicano,Vegetariano,Italiano,Casero,Internacional",
    "photo": "<img src=https://via.placeholder.com/150x100>"
    }
    ]
  }